[{"nid":"31211","title":"EHPAD Emile P\u00e9licand","field_statut_value":"Public","field_tarif_chambre_simple_value":"48.43","field_capacite_value":"177","field_latitude_value":"46.203687","field_longitude_value":"5.219126","tarif_concurrence_direct":55.92,"ranking_direct":11,"difference":7.49},{"nid":"31213","title":"EHPAD Centre hospitalier Belley","field_statut_value":"Public","field_tarif_chambre_simple_value":"48.66","field_capacite_value":"185","field_latitude_value":"45.761208","field_longitude_value":"5.684976","tarif_concurrence_direct":57.33,"ranking_direct":11,"difference":8.67},{"nid":"39937","title":"EHPAD Le Bois d'Avesnes","field_statut_value":"Associatif","field_tarif_chambre_simple_value":"59.85","field_capacite_value":"59","field_latitude_value":"50.198961","field_longitude_value":"3.371027","tarif_concurrence_direct":63.5,"ranking_direct":8,"difference":3.65},{"nid":"39941","title":"EHPAD Les Jardins Brunehaut","field_statut_value":"Associatif","field_tarif_chambre_simple_value":"59.85","field_capacite_value":"68","field_latitude_value":"50.205802","field_longitude_value":"3.348412","tarif_concurrence_direct":63.5,"ranking_direct":8,"difference":3.65},{"nid":"39943","title":"EHPAD Le Champ d'Or","field_statut_value":"Associatif","field_tarif_chambre_simple_value":"59.85","field_capacite_value":"68","field_latitude_value":"50.286245","field_longitude_value":"3.271535","tarif_concurrence_direct":64.25,"ranking_direct":9,"difference":4.4},{"nid":"39945","title":"EHPAD La Jonqui\u00e8re","field_statut_value":"Associatif","field_tarif_chambre_simple_value":"59.85","field_capacite_value":"51","field_latitude_value":"50.039918","field_longitude_value":"3.198026","tarif_concurrence_direct":63.27,"ranking_direct":8,"difference":3.42},{"nid":"39999","title":"R\u00e9sidence Le Verlaine","field_statut_value":"Associatif","field_tarif_chambre_simple_value":"60.75","field_capacite_value":"33","field_latitude_value":"50.256632","field_longitude_value":"4.079990","tarif_concurrence_direct":62.89,"ranking_direct":9,"difference":2.14}]